{
	"type": "FeatureCollection",
	"features": [
		{
			"type": "Feature",
			"properties": {
				"website": "http://informaticalibera.info/",
				"location": "Casa del Quartiere, via Oddino Morgari 14, Torino",
				"details": "Tutti i mercoledi, dalle 18:00 alle 20:00"
			},
			"geometry": {
				"type": "Point",
				"coordinates": [
					7.67819,
					45.05412
				]
			}
		},
		{
			"type": "Feature",
			"properties": {
				"website": "http://www.hcsslug.org/",
				"location": "Università di Salerno, via Giovanni Paolo II 132, Fisciano",
				"details": "Tutti i lunedi, dalle 10:00 alle 17:00"
			},
			"geometry": {
				"type": "Point",
				"coordinates": [
					14.78969,
					40.77446
				]
			}
		},
		{
			"type": "Feature",
			"properties": {
				"website": "http://www.gl-como.it/",
				"location": "Circoscrizione 6, via Achille Grandi 21, Como",
				"details": "Tutti i giovedi, dalle 21:30 alle 23:30"
			},
			"geometry": {
				"type": "Point",
				"coordinates": [
					9.08575,
					45.80010
				]
			}
		},
		{
			"type": "Feature",
			"properties": {
				"website": "http://www.conoscerelinux.it/",
				"location": "Strada Barchetta 77, Modena",
				"details": "Tutti i martedi, dalle 21:00 alle 23:30"
			},
			"geometry": {
				"type": "Point",
				"coordinates": [
					10.89454,
					44.65953
				]
			}
		},
		{
			"type": "Feature",
			"properties": {
				"website": "http://www.fsugpadova.org/associazione/turni-apertura/",
				"location": "Comunità per le Libere Attività Culturali, Via Alvise Cornaro 1B, Padova",
				"details": "Tutti i sabati, dalle 17:30 alle 19:30"
			},
			"geometry": {
				"type": "Point",
				"coordinates": [
					11.89365,
					45.40409
				]
			}
		},
		{
			"type": "Feature",
			"properties": {
				"website": "http://www.govonis.org/index.php?option=com_content&view=article&id=94&Itemid=29",
				"location": "Scuole Medie Valleggia, via Valletta di Vadone, Quiliano",
				"details": "Tutti i giovedi, dalle 21:00 alle 23:00"
			},
			"geometry": {
				"type": "Point",
				"coordinates": [
					8.42490,
					44.28428
				]
			}
		},
		{
			"type": "Feature",
			"properties": {
				"website": "http://presence.hlcs.it/",
				"location": "Università della Calabria, Cubo 22B, Rende",
				"details": "Tutti i martedi, dalle 18:00 alle 00:00"
			},
			"geometry": {
				"type": "Point",
				"coordinates": [
					16.22637,
					39.36137
				]
			}
		},
		{
			"type": "Feature",
			"properties": {
				"website": "http://www.progettoradis.it/",
				"location": "Centro Culturale San Secondo, Via Carducci 24, Asti",
				"details": "Lunedi, mercoledi o venerdi dalle 10:00 alle 17:00"
			},
			"geometry": {
				"type": "Point",
				"coordinates": [
					8.20320,
					44.90044
				]
			}
		},
		{
			"type": "Feature",
			"properties": {
				"website": "http://www.raspibo.org/",
				"location": "Makerspace, Via Canonica 18, Casalecchio di Reno",
				"details": "Ogni secondo e quarto martedi del mese dalle 20:30"
			},
			"geometry": {
				"type": "Point",
				"coordinates": [
					11.2876612,
					44.4852623
				]
			}
		},
		{
			"type": "Feature",
			"properties": {
				"website": "http://ofpcina.net/",
				"location": "RaccattaRAEE, Via Solferino 41, Bologna",
				"details": "Ogni primo martedi e terzo lunedi del mese dalle 18:00"
			},
			"geometry": {
				"type": "Point",
				"coordinates": [
					11.342198,
					44.4878073
				]
			}
		},
		{
			"type": "Feature",
			"properties": {
				"website": "http://www.montellug.it/",
				"location": "Casa del Volontariato, via Dante Alighieri, Montebelluna",
				"details": "Ogni secondo mercoledi e quarto venerdi del mese dalle 21:00 alle 23:00"
			},
			"geometry": {
				"type": "Point",
				"coordinates": [
					12.0457911,
					45.7746106
				]
			}
		},
		{
			"type": "Feature",
			"properties": {
				"website": "http://www.pescaralug.org/",
				"location": "Spazio Più, via del Santuario 156, Pescara",
				"details": "Tutti i mercoledi, dalle 21:30"
			},
			"geometry": {
				"type": "Point",
				"coordinates": [
					14.1949459,
					42.4717593
				]
			}
		},
		{
			"type": "Feature",
			"properties": {
				"website": "http://www.perugiagnulug.org/",
				"location": "Società Operaia di Mutuo Soccorso, Piazza Matteotti Giacomo 14, Magione",
				"details": "Giovedi dalle 21:00, sabato dalle 15:00"
			},
			"geometry": {
				"type": "Point",
				"coordinates": [
					12.204124,
					43.142542
				]
			}
		},
		{
			"type": "Feature",
			"properties": {
				"website": "http://www.avilug.it/doku.php/officina_linux",
				"location": "Palazzo Fogazzaro, via Pasini 46, Schio",
				"details": "Tutti i martedi dalle 20:30"
			},
			"geometry": {
				"type": "Point",
				"coordinates": [
					11.35650,
					45.71307
				]
			}
		},
		{
			"type": "Feature",
			"properties": {
				"website": "http://www.linuxtrent.it/iniziative/sportello-linux/trento",
				"location": "Biblioteca Centrale, via Roma 55, Trento",
				"details": "Tutti i martedi dalle 17:45 alle 19:30"
			},
			"geometry": {
				"type": "Point",
				"coordinates": [
					11.12089,
					46.06976
				]
			}
		},
		{
			"type": "Feature",
			"properties": {
				"website": "http://www.linuxtrent.it/iniziative/sportello-linux/rovereto",
				"location": "Biblioteca Civica, Corso Angelo Bettini 43, Rovereto",
				"details": "Ogni primo martedi del mese dalle 18:00 alle 19:30"
			},
			"geometry": {
				"type": "Point",
				"coordinates": [
					11.04369,
					45.89405
				]
			}
		},
		{
			"type": "Feature",
			"properties": {
				"website": "http://www.linuxtrent.it/iniziative/sportello-linux/ala",
				"location": "Biblioteca, via Roma 40, Ala",
				"details": "Ogni primo giovedi del mese dalle 17:00 alle 18:30"
			},
			"geometry": {
				"type": "Point",
				"coordinates": [
					11.00565,
					45.75658
				]
			}
		},
		{
			"type": "Feature",
			"properties": {
				"website": "http://grappalug.org/dove-siamo/",
				"location": "Centro Giovanile, Piazzale Cadorna 34/A, Bassano del Grappa",
				"details": "Tutti i giovedi dalle 21:00 alle 23:00"
			},
			"geometry": {
				"type": "Point",
				"coordinates": [
					11.73438,
					45.76285
				]
			}
		},
		{
			"type": "Feature",
			"properties": {
				"website": "http://brigx.it/chi-siamo/",
				"location": "Palazzo Solera Mantegazza, via Dante 1, Bernareggio",
				"details": "Al martedi ogni due settimane dalle 21:30 alle 23:30"
			},
			"geometry": {
				"type": "Point",
				"coordinates": [
					9.40832,
					45.64539
				]
			}
		},
		{
			"type": "Feature",
			"properties": {
				"website": "https://luglegnano.wordpress.com/calendario/",
				"location": "Osteria La Tela, via Provinciale Saronnese 31, Rescaldina",
				"details": "Ogni giovedi dalle 21:30"
			},
			"geometry": {
				"type": "Point",
				"coordinates": [
					8.9528,
					45.6123
				]
			}
		},
		{
			"type": "Feature",
			"properties": {
				"website": "http://golem.linux.it/wp/chi-siamo/",
				"location": "La Vela, via Magolo 32, Empoli",
				"details": "Ogni martedi dalle 21:30"
			},
			"geometry": {
				"type": "Point",
				"coordinates": [
					10.9251,
					43.7264
				]
			}
		},
		{
			"type": "Feature",
			"properties": {
				"website": "https://gitlab.com/HackLabCormano/hacklabcormano.it/wikis/home#dove-e-quando",
				"location": "Biblioteca Comunale, via Edison 8, Cormano",
				"details": "Ogni mercoledi dalle 21:00 alle 23:00"
			},
			"geometry": {
				"type": "Point",
				"coordinates": [
					9.1663,
					45.5474
				]
			}
		},
		{
			"type": "Feature",
			"properties": {
				"website": "https://www.pnlug.it/dove-siamo/",
				"location": "Polo Tecnologico 'Andrea Galvani'",
				"details": "Ogni martedi dalle 19:30 alle 22:30"
			},
			"geometry": {
				"type": "Point",
				"coordinates": [
					12.6357,
					45.9918
				]
			}
		},
		{
			"type": "Feature",
			"properties": {
				"website": "https://fuss.bz.it/page/desk/",
				"location": "Sala Guido Sforza",
				"details": "Ogni primo e terzo mercoledi del mese dalle 17:30 alle 19:30"
			},
			"geometry": {
				"type": "Point",
				"coordinates": [
					11.3363,
					46.4918
				]
			}
		}
	]
}
