{"type":"FeatureCollection","features":[{"type":"Feature","properties":{"name":"AnxaLug","website":"http://www.anxalug.org/"},"geometry":{"type":"Point","coordinates":[14.38822,42.21674]}},{"type":"Feature","properties":{"name":"AvezzanoLUG","website":"http://avezzanolug.org/"},"geometry":{"type":"Point","coordinates":[13.4388,42.04023]}},{"type":"Feature","properties":{"name":"LUG CdS","website":"http://lugcds.wordpress.com/"},"geometry":{"type":"Point","coordinates":[14.10352,41.77373]}},{"type":"Feature","properties":{"name":"MarsicaLug","website":"http://www.marsicalug.it/"},"geometry":{"type":"Point","coordinates":[13.5345,41.95693]}},{"type":"Feature","properties":{"name":"SulmonaLug","website":"http://sulmonalug.it/"},"geometry":{"type":"Point","coordinates":[13.92911,42.04793]}},{"type":"Feature","properties":{"name":"PescaraLug","website":"http://www.pescaralug.org/"},"geometry":{"type":"Point","coordinates":[14.21021,42.46024]}},{"type":"Feature","properties":{"name":"PinetoLUG","website":"http://www.pilug.org/"},"geometry":{"type":"Point","coordinates":[14.066,42.60975]}},{"type":"Feature","properties":{"name":"TeLug","website":"http://www.telug.it/"},"geometry":{"type":"Point","coordinates":[13.69901,42.66123]}},{"type":"Feature","properties":{"name":"MateraLinux","website":"http://www.materalinux.it/"},"geometry":{"type":"Point","coordinates":[16.60158,40.66852]}},{"type":"Feature","properties":{"name":"Baslug","website":"http://www.baslug.org/"},"geometry":{"type":"Point","coordinates":[15.80857,40.64432]}},{"type":"Feature","properties":{"name":"HackLab CatanZaro","website":"http://hacklab.cz/"},"geometry":{"type":"Point","coordinates":[16.5987,38.89079]}},{"type":"Feature","properties":{"name":"Bogomips Lug","website":"http://www.blug.it/"},"geometry":{"type":"Point","coordinates":[16.27719,39.5059]}},{"type":"Feature","properties":{"name":"CastroLug","website":"http://castrolug.altervista.org/"},"geometry":{"type":"Point","coordinates":[16.21229,39.8203]}},{"type":"Feature","properties":{"name":"CSLug","website":"http://cslug.linux.it/"},"geometry":{"type":"Point","coordinates":[16.25019,39.30999]}},{"type":"Feature","properties":{"name":"Hacklab Cosenza","website":"http://hlcs.it/"},"geometry":{"type":"Point","coordinates":[16.277139458527,39.30999]}},{"type":"Feature","properties":{"name":"Verdebinario","website":"http://www.verdebinario.org/"},"geometry":{"type":"Point","coordinates":[16.3239817,39.2779091]}},{"type":"Feature","properties":{"name":"Reggio Calabria Lug","website":"http://rclug.linux.it/"},"geometry":{"type":"Point","coordinates":[15.6480756,38.1041281]}},{"type":"Feature","properties":{"name":"IrLUG","website":"http://www.irlug.it/"},"geometry":{"type":"Point","coordinates":[14.7972001,40.9147775]}},{"type":"Feature","properties":{"name":"GLUS","website":"http://www.liberarete.it/glus/"},"geometry":{"type":"Point","coordinates":[14.55843,41.06102]}},{"type":"Feature","properties":{"name":"LiLiS","website":"http://www.lilis.it/"},"geometry":{"type":"Point","coordinates":[14.7708115,41.1301656]}},{"type":"Feature","properties":{"name":"PaduLUG","website":"http://paduglug.paduli.org/"},"geometry":{"type":"Point","coordinates":[14.88504,41.16612]}},{"type":"Feature","properties":{"name":"LUG Manzoni","website":"http://www.lugmanzoni.it/"},"geometry":{"type":"Point","coordinates":[14.3384097,41.0785499]}},{"type":"Feature","properties":{"name":"IGLUG","website":"http://www.iglug.org/"},"geometry":{"type":"Point","coordinates":[14.25,40.83333]}},{"type":"Feature","properties":{"name":"Lug Ischia","website":"http://www.lug-ischia.org/"},"geometry":{"type":"Point","coordinates":[13.94813,40.73523]}},{"type":"Feature","properties":{"name":"MSACK Hacklab","website":"http://msack.org/"},"geometry":{"type":"Point","coordinates":[14.276949458527,40.83333]}},{"type":"Feature","properties":{"name":"Mudilab","website":"http://www.mudilab.eu/"},"geometry":{"type":"Point","coordinates":[14.33763,40.83071]}},{"type":"Feature","properties":{"name":"NaLug","website":"http://www.nalug.net/"},"geometry":{"type":"Point","coordinates":[14.303898917054,40.83333]}},{"type":"Feature","properties":{"name":"GuruLug","website":"http://gurulug.wordpress.com/"},"geometry":{"type":"Point","coordinates":[15.62957,40.0751]}},{"type":"Feature","properties":{"name":"Hop Frog","website":"http://hopfrog.it/"},"geometry":{"type":"Point","coordinates":[14.778959,40.6787503]}},{"type":"Feature","properties":{"name":"LUGAgropoli","website":"http://www.bitebyte.biz/lugagropoli/"},"geometry":{"type":"Point","coordinates":[14.9965487,40.3512095]}},{"type":"Feature","properties":{"name":"ImoLug","website":"http://www.imolug.org/"},"geometry":{"type":"Point","coordinates":[11.71582,44.35227]}},{"type":"Feature","properties":{"name":"ErLug","website":"http://erlug.linux.it/"},"geometry":{"type":"Point","coordinates":[10.92539,44.64783]}},{"type":"Feature","properties":{"name":"Ferrara Lug","website":"http://www.ferrara.linux.it/"},"geometry":{"type":"Point","coordinates":[11.61667,44.83333]}},{"type":"Feature","properties":{"name":"FoLug","website":"http://www.folug.org/"},"geometry":{"type":"Point","coordinates":[12.0640117,44.2175806]}},{"type":"Feature","properties":{"name":"UIELinux","website":"http://www.uielinux.org/"},"geometry":{"type":"Point","coordinates":[12.4005728,44.0913233]}},{"type":"Feature","properties":{"name":"ConoscereLinux","website":"http://www.conoscerelinux.it/"},"geometry":{"type":"Point","coordinates":[10.952339458527,44.64783]}},{"type":"Feature","properties":{"name":"ParmaLug","website":"http://www.parma.linux.it/"},"geometry":{"type":"Point","coordinates":[10.32898,44.80266]}},{"type":"Feature","properties":{"name":"SBLUG","website":"http://salabaganzalug.wordpress.com/"},"geometry":{"type":"Point","coordinates":[10.355929458528,44.80266]}},{"type":"Feature","properties":{"name":"AlfLug","website":"http://www.alflug.it/"},"geometry":{"type":"Point","coordinates":[12.041341,44.4990777]}},{"type":"Feature","properties":{"name":"RavennaLug","website":"http://www.ravennalug.org/"},"geometry":{"type":"Point","coordinates":[12.20111,44.4175]}},{"type":"Feature","properties":{"name":"Lug Scandiano","website":"http://lugscandiano.org/"},"geometry":{"type":"Point","coordinates":[10.6907,44.59646]}},{"type":"Feature","properties":{"name":"RElug","website":"http://www.relug.it/"},"geometry":{"type":"Point","coordinates":[10.63125,44.69825]}},{"type":"Feature","properties":{"name":"RiminiLug","website":"http://www.riminilug.it/"},"geometry":{"type":"Point","coordinates":[12.58083,44.06333]}},{"type":"Feature","properties":{"name":"GoLug","website":"http://www.golug.it/"},"geometry":{"type":"Point","coordinates":[13.62167,45.94088]}},{"type":"Feature","properties":{"name":"Lug Pordenone","website":"http://www.pnlug.it/"},"geometry":{"type":"Point","coordinates":[12.6575,45.96389]}},{"type":"Feature","properties":{"name":"Lug Trieste","website":"http://trieste.linux.it/"},"geometry":{"type":"Point","coordinates":[13.78,45.64861]}},{"type":"Feature","properties":{"name":"AsCI","website":"http://asci.cc.uniud.it/"},"geometry":{"type":"Point","coordinates":[13.2110783,46.0816351]}},{"type":"Feature","properties":{"name":"CarniaLUG","website":"http://www.carnialug.net/"},"geometry":{"type":"Point","coordinates":[13.0175,46.4075]}},{"type":"Feature","properties":{"name":"IGLU","website":"http://iglu.cc.uniud.it/"},"geometry":{"type":"Point","coordinates":[13.24222,46.06194]}},{"type":"Feature","properties":{"name":"Milk","website":"http://www.free-milk.org/"},"geometry":{"type":"Point","coordinates":[12.97917,45.96]}},{"type":"Feature","properties":{"name":"GioveLUG","website":"http://www.giovelug.org/"},"geometry":{"type":"Point","coordinates":[13.24127,41.28967]}},{"type":"Feature","properties":{"name":"LLG","website":"http://www.llg.it/"},"geometry":{"type":"Point","coordinates":[12.9043,41.46614]}},{"type":"Feature","properties":{"name":"Linux4Campagnano","website":"http://www.linux4campagnano.net/"},"geometry":{"type":"Point","coordinates":[12.3818601,42.1397781]}},{"type":"Feature","properties":{"name":"Linux Club Italia","website":"http://linux-club.org/"},"geometry":{"type":"Point","coordinates":[12.4839,41.89474]}},{"type":"Feature","properties":{"name":"Lug Roma TRE","website":"http://www.lugroma3.org/"},"geometry":{"type":"Point","coordinates":[12.510849458527,41.89474]}},{"type":"Feature","properties":{"name":"Roma2LUG","website":"http://lug.uniroma2.it/"},"geometry":{"type":"Point","coordinates":[12.6237906,41.8544064]}},{"type":"Feature","properties":{"name":"SabaziaLug","website":"http://www.sabazialug.org/"},"geometry":{"type":"Point","coordinates":[12.27667,42.08752]}},{"type":"Feature","properties":{"name":"TuLug","website":"http://www.tulug.it/"},"geometry":{"type":"Point","coordinates":[12.10856,42.41783]}},{"type":"Feature","properties":{"name":"ALID","website":"http://www.alid.it/"},"geometry":{"type":"Point","coordinates":[8.9641328,44.4069081]}},{"type":"Feature","properties":{"name":"Op3n_L4b","website":"http://www.openlab-dist.org/"},"geometry":{"type":"Point","coordinates":[8.93386,44.40632]}},{"type":"Feature","properties":{"name":"TLug-TSL","website":"http://tlug.linux.it/"},"geometry":{"type":"Point","coordinates":[9.22796,44.3496]}},{"type":"Feature","properties":{"name":"SLIMP","website":"http://www.slimp.it/"},"geometry":{"type":"Point","coordinates":[8.03083,43.8875]}},{"type":"Feature","properties":{"name":"Govonis GNU/LUG","website":"http://www.govonis.org/"},"geometry":{"type":"Point","coordinates":[8.4242546,44.2842763]}},{"type":"Feature","properties":{"name":"SavonaLug","website":"http://savona.linux.it/"},"geometry":{"type":"Point","coordinates":[8.47715,44.30905]}},{"type":"Feature","properties":{"name":"BGLug","website":"http://bglug.it/"},"geometry":{"type":"Point","coordinates":[9.6689500000001,45.69798]}},{"type":"Feature","properties":{"name":"Linux Club Zogno","website":"http://www.linuxzogno.org/"},"geometry":{"type":"Point","coordinates":[9.6561499999997,45.79188]}},{"type":"Feature","properties":{"name":"CiRcOLaB","website":"http://www.circolab.net/"},"geometry":{"type":"Point","coordinates":[10.22727,45.52478]}},{"type":"Feature","properties":{"name":"LugBS","website":"http://lugbs.linux.it/"},"geometry":{"type":"Point","coordinates":[10.254219458527,45.52478]}},{"type":"Feature","properties":{"name":"Lug Castegnato","website":"http://www.kenparker.eu/LugCastegnato/"},"geometry":{"type":"Point","coordinates":[10.116235,45.5594365]}},{"type":"Feature","properties":{"name":"Lug Ovest Bresciano","website":"http://www.lugob.org/"},"geometry":{"type":"Point","coordinates":[9.9413600000003,45.58138]}},{"type":"Feature","properties":{"name":"GL-Como","website":"http://www.gl-como.it/"},"geometry":{"type":"Point","coordinates":[9.0848005999996,45.8031787]}},{"type":"Feature","properties":{"name":"Lug Crema","website":"http://filibusta.crema.unimi.it/"},"geometry":{"type":"Point","coordinates":[9.6682600000004,45.35877]}},{"type":"Feature","properties":{"name":"LugCR","website":"http://www.lugcr.it/"},"geometry":{"type":"Point","coordinates":[10.0001439,45.1546635]}},{"type":"Feature","properties":{"name":"GLUX","website":"http://www.lecco.linux.it/"},"geometry":{"type":"Point","coordinates":[9.3850300999998,45.8570984]}},{"type":"Feature","properties":{"name":"LoLug","website":"http://www.lolug.org/"},"geometry":{"type":"Point","coordinates":[9.5074229000001,45.3114894]}},{"type":"Feature","properties":{"name":"LugMan","website":"http://lugman.org/"},"geometry":{"type":"Point","coordinates":[10.5997624,45.3515547]}},{"type":"Feature","properties":{"name":"LIFOS","website":"http://www.lifos.org/"},"geometry":{"type":"Point","coordinates":[9.2140940999998,45.5580171]}},{"type":"Feature","properties":{"name":"Lug Bocconi","website":"http://community.lugbocconi.org/"},"geometry":{"type":"Point","coordinates":[9.18951,45.46427]}},{"type":"Feature","properties":{"name":"Lugdico","website":"http://lugdico.wordpress.com/"},"geometry":{"type":"Point","coordinates":[9.2150297999996,45.4544457]}},{"type":"Feature","properties":{"name":"OpenLabs","website":"http://www.openlabs.it/"},"geometry":{"type":"Point","coordinates":[9.2136417999996,45.4439819]}},{"type":"Feature","properties":{"name":"PCOfficina","website":"http://www.pcofficina.org/"},"geometry":{"type":"Point","coordinates":[9.1687662,45.5062147]}},{"type":"Feature","properties":{"name":"POuL","website":"http://www.poul.org/"},"geometry":{"type":"Point","coordinates":[9.2164594585274,45.46427]}},{"type":"Feature","properties":{"name":"ViGLug","website":"http://viglug.org/"},"geometry":{"type":"Point","coordinates":[9.3766499999996,45.49657]}},{"type":"Feature","properties":{"name":"MoBLUG","website":"http://it-it.facebook.com/pages/MoBLUG-Monza-e-Brianza-Linux-Group/195366463068?sk=info"},"geometry":{"type":"Point","coordinates":[9.2951995000004,45.5819338]}},{"type":"Feature","properties":{"name":"LUGDucale","website":"http://www.lugducale.it/"},"geometry":{"type":"Point","coordinates":[8.875764,45.322183]}},{"type":"Feature","properties":{"name":"Ohosys.org","website":"http://www.ohosys.org/"},"geometry":{"type":"Point","coordinates":[9.11315,45.03976]}},{"type":"Feature","properties":{"name":"GULLP - Gruppo Utenti Linux Lonate Pozzolo","website":"http://www.gullp.it/"},"geometry":{"type":"Point","coordinates":[8.82193,45.82908]}},{"type":"Feature","properties":{"name":"IspraLUG","website":"http://ispralug.eu/"},"geometry":{"type":"Point","coordinates":[8.61294,45.8148]}},{"type":"Feature","properties":{"name":"LIFO","website":"http://www.lifolab.org/"},"geometry":{"type":"Point","coordinates":[8.8488794585273,45.82908]}},{"type":"Feature","properties":{"name":"LinuxVar","website":"http://www.linuxvar.it/"},"geometry":{"type":"Point","coordinates":[8.7408701,45.6714626]}},{"type":"Feature","properties":{"name":"LUG Saronno","website":"http://lugsaronno.altervista.org/"},"geometry":{"type":"Point","coordinates":[9.0346399999996,45.62787]}},{"type":"Feature","properties":{"name":"ADMT","website":"http://www.admt.org/lug/"},"geometry":{"type":"Point","coordinates":[9.3670500000001,45.61188]}},{"type":"Feature","properties":{"name":"FreeGLOO","website":"http://freegloo.wordpress.com/"},"geometry":{"type":"Point","coordinates":[13.51008,43.59816]}},{"type":"Feature","properties":{"name":"PDP FSUG","website":"http://pdp.linux.it/"},"geometry":{"type":"Point","coordinates":[12.9099314,43.3390926]}},{"type":"Feature","properties":{"name":"SenaLUG","website":"http://www.senalug.org/"},"geometry":{"type":"Point","coordinates":[13.21667,43.70926]}},{"type":"Feature","properties":{"name":"FSUGSBT","website":"http://www.fsugsbt.info/"},"geometry":{"type":"Point","coordinates":[13.8929922,42.9321235]}},{"type":"Feature","properties":{"name":"LUG/FSUG Ascoli","website":"http://lugascoli.kairosmedia.it"},"geometry":{"type":"Point","coordinates":[13.5749,42.85483]}},{"type":"Feature","properties":{"name":"Fermo Lug","website":"http://www.linuxfm.org/"},"geometry":{"type":"Point","coordinates":[13.72329,43.16466]}},{"type":"Feature","properties":{"name":"Gruppo Linux Macerata","website":"http://www.gruppolinuxmc.it/"},"geometry":{"type":"Point","coordinates":[13.45293,43.29789]}},{"type":"Feature","properties":{"name":"Fortunae Lug","website":"http://www.fanolug.org/"},"geometry":{"type":"Point","coordinates":[13.0082685,43.8372693]}},{"type":"Feature","properties":{"name":"Hacklab-42","website":"http://hacklab-42.dark-lab.net/"},"geometry":{"type":"Point","coordinates":[12.89026,43.90357]}},{"type":"Feature","properties":{"name":"Urbino-LUG","website":"http://urbino-lug.tumblr.com/"},"geometry":{"type":"Point","coordinates":[12.917209458528,43.90357]}},{"type":"Feature","properties":{"name":"AlLug","website":"http://www.alessandria.linux.it/"},"geometry":{"type":"Point","coordinates":[8.61894,44.91245]}},{"type":"Feature","properties":{"name":"Progetto Radis","website":"http://www.progettoradis.it/"},"geometry":{"type":"Point","coordinates":[8.2713489,44.8520814]}},{"type":"Feature","properties":{"name":"BiLug","website":"http://www.bilug.linux.it/"},"geometry":{"type":"Point","coordinates":[8.0927984,45.5895185]}},{"type":"Feature","properties":{"name":"GlugCN","website":"http://cuneo.linux.it/"},"geometry":{"type":"Point","coordinates":[7.54453,44.39733]}},{"type":"Feature","properties":{"name":"ABC Lug","website":"http://abc.linux.it/"},"geometry":{"type":"Point","coordinates":[7.71803,44.84704]}},{"type":"Feature","properties":{"name":"Gallug","website":"http://www.gallug.it/"},"geometry":{"type":"Point","coordinates":[8.69674,45.48157]}},{"type":"Feature","properties":{"name":"LiNOx","website":"http://linoxnovara.wordpress.com/"},"geometry":{"type":"Point","coordinates":[8.5997753,45.4378744]}},{"type":"Feature","properties":{"name":"Accademia Hardware e Software Libero 'Adriano Olivetti'","website":"http://www.accademialiberaivrea.eu/"},"geometry":{"type":"Point","coordinates":[7.87617,45.46723]}},{"type":"Feature","properties":{"name":"GlugTO","website":"http://glugto.org/"},"geometry":{"type":"Point","coordinates":[7.68682,45.07049]}},{"type":"Feature","properties":{"name":"IvLug","website":"http://www.ivlug.it/"},"geometry":{"type":"Point","coordinates":[7.8726556,45.45791]}},{"type":"Feature","properties":{"name":"Officina Informatica Libera","website":"http://informaticalibera.info/"},"geometry":{"type":"Point","coordinates":[7.6870155,45.0797009]}},{"type":"Feature","properties":{"name":"Prometeo Libero","website":"http://www.openlabto.org/"},"geometry":{"type":"Point","coordinates":[7.7032125,45.1101205]}},{"type":"Feature","properties":{"name":"SLIP","website":"http://www.softwareliberopinerolo.org/"},"geometry":{"type":"Point","coordinates":[7.35,44.88333]}},{"type":"Feature","properties":{"name":"Underscore HackLab","website":"http://www.autistici.org/underscore/"},"geometry":{"type":"Point","coordinates":[7.7137694585274,45.07049]}},{"type":"Feature","properties":{"name":"ValSusinux","website":"http://www.valsusinux.it/"},"geometry":{"type":"Point","coordinates":[7.39862,45.07714]}},{"type":"Feature","properties":{"name":"AUTLug","website":"https://www.facebook.com/pages/ARCI-AUT-Conversano/192505224187241"},"geometry":{"type":"Point","coordinates":[17.11479,40.96623]}},{"type":"Feature","properties":{"name":"Linux Club Conversano","website":"http://lxcc.it.gg/"},"geometry":{"type":"Point","coordinates":[17.1149891,40.9611606]}},{"type":"Feature","properties":{"name":"MurgiaLug","website":"http://www.open-pc.eu/index.php/murgialug"},"geometry":{"type":"Point","coordinates":[16.75529,40.79303]}},{"type":"Feature","properties":{"name":"BriLug","website":"http://www.brilug.it/"},"geometry":{"type":"Point","coordinates":[17.93682,40.62773]}},{"type":"Feature","properties":{"name":"ManfredoniaLUG","website":"http://manfredonialug.linux.it/"},"geometry":{"type":"Point","coordinates":[15.90936,41.62594]}},{"type":"Feature","properties":{"name":"Salento Open Source","website":"http://www.softwareliberosalento.it/"},"geometry":{"type":"Point","coordinates":[18.17202,40.35703]}},{"type":"Feature","properties":{"name":"SaLug","website":"http://salug.it/"},"geometry":{"type":"Point","coordinates":[18.198969458527,40.35703]}},{"type":"Feature","properties":{"name":"MassLug","website":"http://masslug.wordpress.com/"},"geometry":{"type":"Point","coordinates":[17.1108549,40.5902874]}},{"type":"Feature","properties":{"name":"GULCh","website":"http://www.gulch.it/"},"geometry":{"type":"Point","coordinates":[9.13462,39.20738]}},{"type":"Feature","properties":{"name":"GNUraghe","website":"http://www.gnuraghe.org/"},"geometry":{"type":"Point","coordinates":[8.59194,39.90306]}},{"type":"Feature","properties":{"name":"Plugs","website":"http://www.plugs.it/"},"geometry":{"type":"Point","coordinates":[8.56028,40.72722]}},{"type":"Feature","properties":{"name":"CLug","website":"http://www.clug.it/"},"geometry":{"type":"Point","coordinates":[14.04497,37.48774]}},{"type":"Feature","properties":{"name":"Istituto Ettore Majorana","website":"http://www.istitutomajorana.it/"},"geometry":{"type":"Point","coordinates":[14.23068,37.08034]}},{"type":"Feature","properties":{"name":"VPLug","website":"http://www.vplug.it/"},"geometry":{"type":"Point","coordinates":[14.071919458528,37.48774]}},{"type":"Feature","properties":{"name":"CataniaLUG","website":"http://catania.linux.it/"},"geometry":{"type":"Point","coordinates":[15.0928255,37.5143593]}},{"type":"Feature","properties":{"name":"EtnaLUG","website":"http://sites.google.com/site/etnalug/"},"geometry":{"type":"Point","coordinates":[15.08719,37.50213]}},{"type":"Feature","properties":{"name":"FreakNet MediLab","website":"http://www.dyne.org/"},"geometry":{"type":"Point","coordinates":[15.114139458528,37.50213]}},{"type":"Feature","properties":{"name":"EnnaLUG","website":"http://leonforte.linux.it/"},"geometry":{"type":"Point","coordinates":[14.28917,37.55885]}},{"type":"Feature","properties":{"name":"Lug Messina","website":"http://www.messinalug.org/"},"geometry":{"type":"Point","coordinates":[15.54969,38.19327]}},{"type":"Feature","properties":{"name":"SputniX","website":"http://www.sputnix.it/"},"geometry":{"type":"Point","coordinates":[13.35976,38.11582]}},{"type":"Feature","properties":{"name":"SoLiRa","website":"http://www.solira.org/"},"geometry":{"type":"Point","coordinates":[14.7259948,36.9270052]}},{"type":"Feature","properties":{"name":"ALug","website":"http://linuxavola.blogspot.it/"},"geometry":{"type":"Point","coordinates":[15.1395,36.91134]}},{"type":"Feature","properties":{"name":"Lug Siracusa","website":"http://www.siracusa.linux.it/"},"geometry":{"type":"Point","coordinates":[15.273,37.08515]}},{"type":"Feature","properties":{"name":"Poetry Hacklab","website":"http://museo.freaknet.org/poetry-hacklab/"},"geometry":{"type":"Point","coordinates":[14.90349,37.06234]}},{"type":"Feature","properties":{"name":"IPIOS","website":"http://www.ipios.org/"},"geometry":{"type":"Point","coordinates":[11.8174699,43.6957934]}},{"type":"Feature","properties":{"name":"GOLEM","website":"http://golem.linux.it/"},"geometry":{"type":"Point","coordinates":[10.94142,43.71754]}},{"type":"Feature","properties":{"name":"Flug","website":"http://www.firenze.linux.it/"},"geometry":{"type":"Point","coordinates":[11.25,43.76667]}},{"type":"Feature","properties":{"name":"Hacklab Firenze","website":"http://www.autistici.org/hacklab_fi/"},"geometry":{"type":"Point","coordinates":[11.276949458527,43.76667]}},{"type":"Feature","properties":{"name":"Libera Informatica","website":"http://www.liberainformatica.it/"},"geometry":{"type":"Point","coordinates":[11.2934141,43.7603585]}},{"type":"Feature","properties":{"name":"LiLik","website":"http://www.lilik.it/"},"geometry":{"type":"Point","coordinates":[11.303898917055,43.76667]}},{"type":"Feature","properties":{"name":"Gulli","website":"http://www.linux.livorno.it/"},"geometry":{"type":"Point","coordinates":[10.316,43.54264]}},{"type":"Feature","properties":{"name":"Lucca Lug","website":"http://www.luccalug.it/"},"geometry":{"type":"Point","coordinates":[10.50585,43.84357]}},{"type":"Feature","properties":{"name":"ACROS","website":"http://lug-acros.org/"},"geometry":{"type":"Point","coordinates":[10.2464968,43.9415117]}},{"type":"Feature","properties":{"name":"Massa LUG","website":"http://massalinux.altervista.org/"},"geometry":{"type":"Point","coordinates":[10.09987,44.07834]}},{"type":"Feature","properties":{"name":"Gulp","website":"http://www.gulp.linux.it/"},"geometry":{"type":"Point","coordinates":[10.4064108,43.7032363]}},{"type":"Feature","properties":{"name":"T-OSSLab","website":"http://www.tosslab.it/"},"geometry":{"type":"Point","coordinates":[10.4868067,43.6851154]}},{"type":"Feature","properties":{"name":"PtLug","website":"http://www.ptlug.org/"},"geometry":{"type":"Point","coordinates":[10.92361,43.92125]}},{"type":"Feature","properties":{"name":"Plug","website":"http://www.prato.linux.it/"},"geometry":{"type":"Point","coordinates":[11.0895263,43.8760295]}},{"type":"Feature","properties":{"name":"ElsaGLUG","website":"http://www.elsaglug.org/"},"geometry":{"type":"Point","coordinates":[11.1389137,43.4714909]}},{"type":"Feature","properties":{"name":"Progetto GNUnisi","website":"http://www.gnu.unisi.it"},"geometry":{"type":"Point","coordinates":[11.33283,43.32004]}},{"type":"Feature","properties":{"name":"SLUG","website":"http://www.siena.linux.it/"},"geometry":{"type":"Point","coordinates":[11.359779458527,43.32004]}},{"type":"Feature","properties":{"name":"Lug Bolzano","website":"http://www.lugbz.org/"},"geometry":{"type":"Point","coordinates":[11.33358,46.49272]}},{"type":"Feature","properties":{"name":"LinuxTrent","website":"http://www.linuxtrent.it/"},"geometry":{"type":"Point","coordinates":[11.12108,46.06787]}},{"type":"Feature","properties":{"name":"GNU/Lug Perugia","website":"http://www.perugiagnulug.org/"},"geometry":{"type":"Point","coordinates":[12.2973535,43.0885379]}},{"type":"Feature","properties":{"name":"OrvietoLug","website":"http://www.orvietolug.it/"},"geometry":{"type":"Point","coordinates":[12.109758,42.7194256]}},{"type":"Feature","properties":{"name":"Terni GNU/Lug","website":"http://www.ternignulug.org/"},"geometry":{"type":"Point","coordinates":[12.64987,42.56713]}},{"type":"Feature","properties":{"name":"SLAG","website":"http://www.slag.it/"},"geometry":{"type":"Point","coordinates":[7.3166,45.73736]}},{"type":"Feature","properties":{"name":"Blug","website":"http://belluno.linux.it/"},"geometry":{"type":"Point","coordinates":[12.22139,46.145]}},{"type":"Feature","properties":{"name":"LugAnegA","website":"http://www.luganega.net/"},"geometry":{"type":"Point","coordinates":[12.2249518,46.143985]}},{"type":"Feature","properties":{"name":"Blah Hacklab","website":"http://blah.pizzahack.eu/"},"geometry":{"type":"Point","coordinates":[11.6412822,45.225887]}},{"type":"Feature","properties":{"name":"Faber Libertatis","website":"http://faberlibertatis.org/"},"geometry":{"type":"Point","coordinates":[11.9441158,45.4024952]}},{"type":"Feature","properties":{"name":"FSUG Padova","website":"http://www.fsugpadova.org/"},"geometry":{"type":"Point","coordinates":[11.88181,45.41519]}},{"type":"Feature","properties":{"name":"MontelLug","website":"http://www.montellug.it/"},"geometry":{"type":"Point","coordinates":[12.0461454,45.7742638]}},{"type":"Feature","properties":{"name":"TVLug","website":"http://tvlug.it/"},"geometry":{"type":"Point","coordinates":[12.245,45.66667]}},{"type":"Feature","properties":{"name":"0421ug","website":"http://www.0421ug.org/"},"geometry":{"type":"Point","coordinates":[12.32667,45.43861]}},{"type":"Feature","properties":{"name":"VELug","website":"http://www.velug.it/"},"geometry":{"type":"Point","coordinates":[12.353619458527,45.43861]}},{"type":"Feature","properties":{"name":"LinuxLudus","website":"http://www.linuxludus.it/"},"geometry":{"type":"Point","coordinates":[10.8489553,45.3499922]}},{"type":"Feature","properties":{"name":"LugVR","website":"http://www.lugverona.it/"},"geometry":{"type":"Point","coordinates":[11.0614793,45.461032]}},{"type":"Feature","properties":{"name":"Officina S3","website":"http://www.officina-s3.org/"},"geometry":{"type":"Point","coordinates":[10.84368,45.40658]}},{"type":"Feature","properties":{"name":"2viLUG","website":"http://dueville.linux.it"},"geometry":{"type":"Point","coordinates":[11.5502,45.6337]}},{"type":"Feature","properties":{"name":"AVi Lug","website":"http://www.avilug.it/"},"geometry":{"type":"Point","coordinates":[11.35739,45.7124]}},{"type":"Feature","properties":{"name":"GrappaFSD","website":"http://grappafsd.altervista.org/"},"geometry":{"type":"Point","coordinates":[11.7357,45.7676]}},{"type":"Feature","properties":{"name":"GrappaLUG","website":"http://grappalug.org/"},"geometry":{"type":"Point","coordinates":[11.7343817,45.7628536]}},{"type":"Feature","properties":{"name":"Lug Vicenza","website":"http://vicenza.linux.it/"},"geometry":{"type":"Point","coordinates":[11.5409,45.55729]}}]}